{"aqi":{"air":"31","air_level":"优","air_tips":"空气质量令人满意，基本无空气污染。","city":"北京市","cityEn":"","cityid":"101010100","co":"0.2","co_desc":"","country":"","countryEn":"","jinghuaqi":"不需要打开","kaichuang":"适宜开窗","kouzhao":"不用佩戴口罩","no2":"5","no2_desc":"","o3":"98","o3_desc":"","pm10":"23","pm10_desc":"优","pm25":"11","pm25_desc":"优","so2":"3","so2_desc":"","update_time":"16:56","waichu":"适宜外出","yundong":"适宜运动"},"city":"北京","cityEn":"beijing","cityid":"101010100","country":"中国","countryEn":"China","data":[{"air":"31","air_level":"优","air_tips":"空气质量令人满意，基本无空气污染。","alarm":{"alarm_content":"","alarm_level":"","alarm_title":"","alarm_type":""},"date":"2025-06-10","day":"10日（星期二）","hours":[{"hours":"08时","tem":"25","wea":"晴","wea_img":"qing","win":"西南风","win_speed":"<3级"},{"hours":"09时","tem":"27","wea":"晴","wea_img":"qing","win":"西风","win_speed":"<3级"},{"hours":"10时","tem":"28","wea":"晴","wea_img":"qing","win":"西风","win_speed":"<3级"},{"hours":"11时","tem":"30","wea":"晴","wea_img":"qing","win":"西北风","win_speed":"<3级"},{"hours":"12时","tem":"31","wea":"晴","wea_img":"qing","win":"西北风","win_speed":"<3级"},{"hours":"13时","tem":"32","wea":"晴","wea_img":"qing","win":"西北风","win_speed":"<3级"},{"hours":"14时","tem":"33","wea":"晴","wea_img":"qing","win":"西北风","win_speed":"<3级"},{"hours":"15时","tem":"33","wea":"晴","wea_img":"qing","win":"西风","win_speed":"<3级"},{"hours":"16时","tem":"33","wea":"晴","wea_img":"qing","win":"西风","win_speed":"<3级"},{"hours":"17时","tem":"33","wea":"晴","wea_img":"qing","win":"西南风","win_speed":"<3级"},{"hours":"18时","tem":"32","wea":"晴","wea_img":"qing","win":"西南风","win_speed":"<3级"},{"hours":"19时","tem":"31","wea":"晴","wea_img":"qing","win":"西南风","win_speed":"<3级"},{"hours":"20时","tem":"30","wea":"晴","wea_img":"qing","win":"西南风","win_speed":"<3级"},{"hours":"21时","tem":"27","wea":"晴","wea_img":"qing","win":"西南风","win_speed":"<3级"},{"hours":"22时","tem":"25","wea":"晴","wea_img":"qing","win":"西南风","win_speed":"<3级"},{"hours":"23时","tem":"23","wea":"晴","wea_img":"qing","win":"西南风","win_speed":"<3级"},{"hours":"00时","tem":"22","wea":"晴","wea_img":"qing","win":"西南风","win_speed":"<3级"},{"hours":"01时","tem":"21","wea":"晴","wea_img":"qing","win":"西南风","win_speed":"<3级"},{"hours":"02时","tem":"21","wea":"晴","wea_img":"qing","win":"西南风","win_speed":"<3级"},{"hours":"03时","tem":"20","wea":"晴","wea_img":"qing","win":"西南风","win_speed":"<3级"},{"hours":"04时","tem":"20","wea":"晴","wea_img":"qing","win":"西南风","win_speed":"<3级"},{"hours":"05时","tem":"20","wea":"晴","wea_img":"qing","win":"西南风","win_speed":"<3级"},{"hours":"06时","tem":"21","wea":"晴","wea_img":"qing","win":"西南风","win_speed":"<3级"},{"hours":"07时","tem":"23","wea":"晴","wea_img":"qing","win":"西南风","win_speed":"<3级"}],"humidity":"15%","index":[{"desc":"涂擦SPF20以上，PA++护肤品，避强光。","level":"很强","title":"紫外线指数"},{"desc":"请适当减少运动时间，降低运动强度。","level":"较适宜","title":"减肥指数"},{"desc":"除特殊体质，无需担心过敏问题。","level":"不易发","title":"血糖指数"},{"desc":"建议穿短衫、短裤等清凉夏季服装。","level":"炎热","title":"穿衣指数"},{"desc":"天气较好，适合擦洗汽车。","level":"适宜","title":"洗车指数"},{"desc":"易感人群应适当减少室外活动。","level":"中","title":"空气污染扩散指数"}],"pressure":"1003","sunrise":"04:45","sunset":"19:42","tem":"32.5","tem1":"34","tem2":"20","uvDescription":"强","uvIndex":"7","visibility":"28km","wea":"晴","wea_day":"晴","wea_day_img":"qing","wea_img":"qing","wea_night":"晴","wea_night_img":"qing","week":"星期二","win":["西南风","西南风"],"win_meter":"14km/h","win_speed":"<3级"},{"air":"83","air_level":"良","air_tips":"","alarm":{"alarm_content":"","alarm_level":"","alarm_type":""},"date":"2025-06-11","day":"11日（星期三）","hours":[{"hours":"08时","tem":"25","wea":"晴","wea_img":"qing","win":"西南风","win_speed":"<3级"},{"hours":"09时","tem":"27","wea":"晴","wea_img":"qing","win":"西南风","win_speed":"<3级"},{"hours":"10时","tem":"30","wea":"晴","wea_img":"qing","win":"西南风","win_speed":"3-4级"},{"hours":"11时","tem":"32","wea":"晴","wea_img":"qing","win":"西南风","win_speed":"3-4级"},{"hours":"12时","tem":"33","wea":"晴","wea_img":"qing","win":"西南风","win_speed":"3-4级"},{"hours":"13时","tem":"33","wea":"晴","wea_img":"qing","win":"南风","win_speed":"3-4级"},{"hours":"14时","tem":"33","wea":"晴","wea_img":"qing","win":"南风","win_speed":"3-4级"},{"hours":"15时","tem":"34","wea":"晴","wea_img":"qing","win":"南风","win_speed":"3-4级"},{"hours":"16时","tem":"34","wea":"晴","wea_img":"qing","win":"南风","win_speed":"3-4级"},{"hours":"17时","tem":"34","wea":"晴","wea_img":"qing","win":"南风","win_speed":"3-4级"},{"hours":"18时","tem":"33","wea":"晴","wea_img":"qing","win":"南风","win_speed":"3-4级"},{"hours":"19时","tem":"32","wea":"晴","wea_img":"qing","win":"南风","win_speed":"3-4级"},{"hours":"20时","tem":"31","wea":"晴","wea_img":"qing","win":"南风","win_speed":"3-4级"},{"hours":"21时","tem":"30","wea":"多云","wea_img":"yun","win":"南风","win_speed":"<3级"},{"hours":"22时","tem":"30","wea":"多云","wea_img":"yun","win":"南风","win_speed":"<3级"},{"hours":"23时","tem":"29","wea":"多云","wea_img":"yun","win":"南风","win_speed":"<3级"},{"hours":"00时","tem":"28","wea":"多云","wea_img":"yun","win":"南风","win_speed":"<3级"},{"hours":"01时","tem":"28","wea":"多云","wea_img":"yun","win":"南风","win_speed":"<3级"},{"hours":"02时","tem":"27","wea":"多云","wea_img":"yun","win":"南风","win_speed":"<3级"},{"hours":"03时","tem":"26","wea":"多云","wea_img":"yun","win":"南风","win_speed":"<3级"},{"hours":"04时","tem":"25","wea":"多云","wea_img":"yun","win":"南风","win_speed":"<3级"},{"hours":"05时","tem":"25","wea":"多云","wea_img":"yun","win":"南风","win_speed":"<3级"},{"hours":"06时","tem":"26","wea":"多云","wea_img":"yun","win":"南风","win_speed":"<3级"},{"hours":"07时","tem":"27","wea":"多云","wea_img":"yun","win":"南风","win_speed":"<3级"}],"humidity":"28%","index":[{"desc":"涂擦SPF20以上，PA++护肤品，避强光。","level":"很强","title":"紫外线指数"},{"desc":"请适当降低运动强度并注意户外防风。","level":"较适宜","title":"减肥指数"},{"desc":"除特殊体质，无需担心过敏问题。","level":"不易发","title":"血糖指数"},{"desc":"建议穿短衫、短裤等清凉夏季服装。","level":"炎热","title":"穿衣指数"},{"desc":"风力较大，洗车后会蒙上灰尘。","level":"较不宜","title":"洗车指数"},{"desc":"气象条件有利于空气污染物扩散。","level":"良","title":"空气污染扩散指数"}],"pressure":"","sunrise":"04:45","sunset":"19:42","tem":"35","tem1":"35","tem2":"25","uvDescription":"很强","uvIndex":"9","visibility":"","wea":"晴转多云","wea_day":"晴","wea_day_img":"qing","wea_img":"yun","wea_night":"多云","wea_night_img":"yun","week":"星期三","win":["南风","南风"],"win_meter":"","win_speed":"3-4级转<3级"},{"air":"87","air_level":"良","air_tips":"","alarm":{"alarm_content":"","alarm_level":"","alarm_type":""},"date":"2025-06-12","day":"12日（星期四）","hours":[{"hours":"08时","tem":"28","wea":"多云","wea_img":"yun","win":"南风","win_speed":"<3级"},{"hours":"09时","tem":"29","wea":"多云","wea_img":"yun","win":"南风","win_speed":"<3级"},{"hours":"10时","tem":"30","wea":"多云","wea_img":"yun","win":"南风","win_speed":"<3级"},{"hours":"11时","tem":"31","wea":"多云","wea_img":"yun","win":"南风","win_speed":"<3级"},{"hours":"12时","tem":"32","wea":"多云","wea_img":"yun","win":"南风","win_speed":"<3级"},{"hours":"13时","tem":"33","wea":"多云","wea_img":"yun","win":"南风","win_speed":"<3级"},{"hours":"14时","tem":"33","wea":"晴","wea_img":"qing","win":"南风","win_speed":"<3级"},{"hours":"15时","tem":"33","wea":"晴","wea_img":"qing","win":"南风","win_speed":"<3级"},{"hours":"16时","tem":"33","wea":"晴","wea_img":"qing","win":"南风","win_speed":"<3级"},{"hours":"17时","tem":"33","wea":"晴","wea_img":"qing","win":"南风","win_speed":"<3级"},{"hours":"18时","tem":"33","wea":"多云","wea_img":"yun","win":"南风","win_speed":"<3级"},{"hours":"19时","tem":"33","wea":"多云","wea_img":"yun","win":"南风","win_speed":"<3级"},{"hours":"20时","tem":"33","wea":"多云","wea_img":"yun","win":"南风","win_speed":"<3级"},{"hours":"21时","tem":"31","wea":"多云","wea_img":"yun","win":"南风","win_speed":"<3级"},{"hours":"22时","tem":"29","wea":"阴","wea_img":"yin","win":"南风","win_speed":"<3级"},{"hours":"23时","tem":"27","wea":"阴","wea_img":"yin","win":"南风","win_speed":"<3级"},{"hours":"00时","tem":"26","wea":"阴","wea_img":"yin","win":"南风","win_speed":"<3级"},{"hours":"01时","tem":"25","wea":"阴","wea_img":"yin","win":"南风","win_speed":"<3级"},{"hours":"02时","tem":"24","wea":"阴","wea_img":"yin","win":"南风","win_speed":"<3级"},{"hours":"03时","tem":"23","wea":"阴","wea_img":"yin","win":"南风","win_speed":"<3级"},{"hours":"04时","tem":"22","wea":"阴","wea_img":"yin","win":"南风","win_speed":"<3级"},{"hours":"05时","tem":"22","wea":"阴","wea_img":"yin","win":"东南风","win_speed":"<3级"},{"hours":"06时","tem":"23","wea":"阴","wea_img":"yin","win":"东南风","win_speed":"<3级"},{"hours":"07时","tem":"23","wea":"阴","wea_img":"yin","win":"东南风","win_speed":"<3级"}],"humidity":"37%","index":[{"desc":"涂擦SPF大于15、PA+防晒护肤品。","level":"强","title":"紫外线指数"},{"desc":"请适当减少运动时间，降低运动强度。","level":"较适宜","title":"减肥指数"},{"desc":"除特殊体质，无需担心过敏问题。","level":"不易发","title":"血糖指数"},{"desc":"建议穿短衫、短裤等清凉夏季服装。","level":"炎热","title":"穿衣指数"},{"desc":"无雨且风力较小，易保持清洁度。","level":"较适宜","title":"洗车指数"},{"desc":"易感人群应适当减少室外活动。","level":"中","title":"空气污染扩散指数"}],"pressure":"","sunrise":"04:45","sunset":"19:43","tem":"34","tem1":"34","tem2":"22","uvDescription":"很强","uvIndex":"9","visibility":"","wea":"多云转阴","wea_day":"多云","wea_day_img":"yun","wea_img":"yun","wea_night":"阴","wea_night_img":"yin","week":"星期四","win":["南风","南风"],"win_meter":"","win_speed":"<3级"},{"air":"67","air_level":"良","air_tips":"","alarm":{"alarm_content":"","alarm_level":"","alarm_type":""},"date":"2025-06-13","day":"13日（星期五）","hours":[{"hours":"08时","tem":"24","wea":"多云","wea_img":"yun","win":"东风","win_speed":"<3级"},{"hours":"11时","tem":"28","wea":"阴","wea_img":"yin","win":"东风","win_speed":"<3级"},{"hours":"14时","tem":"31","wea":"阴","wea_img":"yin","win":"东北风","win_speed":"<3级"},{"hours":"17时","tem":"32","wea":"阴","wea_img":"yin","win":"东风","win_speed":"<3级"},{"hours":"20时","tem":"27","wea":"阴","wea_img":"yin","win":"东北风","win_speed":"<3级"},{"hours":"23时","tem":"24","wea":"小雨","wea_img":"yu","win":"东风","win_speed":"<3级"},{"hours":"02时","tem":"22","wea":"小雨","wea_img":"yu","win":"东风","win_speed":"<3级"},{"hours":"05时","tem":"22","wea":"多云","wea_img":"yun","win":"东风","win_speed":"<3级"}],"humidity":"49%","index":[{"desc":"辐射弱，涂擦SPF8-12防晒护肤品。","level":"最弱","title":"紫外线指数"},{"desc":"请适当减少运动时间，降低运动强度。","level":"较适宜","title":"减肥指数"},{"desc":"除特殊体质，无需担心过敏问题。","level":"不易发","title":"血糖指数"},{"desc":"建议穿短衫、短裤等清凉夏季服装。","level":"炎热","title":"穿衣指数"},{"desc":"有雨，雨水和泥水会弄脏爱车。","level":"不宜","title":"洗车指数"},{"desc":"气象条件较不利于空气污染物扩散。。","level":"较差","title":"空气污染扩散指数"}],"pressure":"","sunrise":"04:45","sunset":"19:43","tem":"32","tem1":"32","tem2":"22","uvDescription":"强","uvIndex":"7","visibility":"","wea":"阴转小雨","wea_day":"阴","wea_day_img":"yin","wea_img":"yu","wea_night":"小雨","wea_night_img":"yu","week":"星期五","win":["北风","东风"],"win_meter":"","win_speed":"<3级"},{"air":"62","air_level":"良","air_tips":"","alarm":{"alarm_content":"","alarm_level":"","alarm_type":""},"date":"2025-06-14","day":"14日（星期六）","hours":[{"hours":"08时","tem":"25","wea":"多云","wea_img":"yun","win":"东风","win_speed":"<3级"},{"hours":"11时","tem":"29","wea":"晴","wea_img":"qing","win":"东南风","win_speed":"<3级"},{"hours":"14时","tem":"32","wea":"晴","wea_img":"qing","win":"西南风","win_speed":"<3级"},{"hours":"17时","tem":"30","wea":"雷阵雨","wea_img":"yu","win":"西风","win_speed":"<3级"},{"hours":"20时","tem":"29","wea":"雷阵雨","wea_img":"yu","win":"西风","win_speed":"<3级"},{"hours":"23时","tem":"25","wea":"雷阵雨","wea_img":"yu","win":"东风","win_speed":"<3级"},{"hours":"02时","tem":"22","wea":"雷阵雨","wea_img":"yu","win":"北风","win_speed":"<3级"},{"hours":"05时","tem":"24","wea":"多云","wea_img":"yun","win":"东风","win_speed":"<3级"}],"humidity":"63%","index":[{"desc":"辐射弱，涂擦SPF8-12防晒护肤品。","level":"最弱","title":"紫外线指数"},{"desc":"有降水，推荐您在室内进行休闲运动。","level":"较不宜","title":"减肥指数"},{"desc":"除特殊体质，无需担心过敏问题。","level":"不易发","title":"血糖指数"},{"desc":"建议穿短衫、短裤等清凉夏季服装。","level":"炎热","title":"穿衣指数"},{"desc":"有雨，雨水和泥水会弄脏爱车。","level":"不宜","title":"洗车指数"},{"desc":"气象条件有利于空气污染物扩散。","level":"良","title":"空气污染扩散指数"}],"pressure":"","sunrise":"04:45","sunset":"19:44","tem":"33","tem1":"33","tem2":"22","uvDescription":"很强","uvIndex":"8","visibility":"","wea":"雷阵雨","wea_day":"雷阵雨","wea_day_img":"yu","wea_img":"yu","wea_night":"雷阵雨","wea_night_img":"yu","week":"星期六","win":["西南风","西北风"],"win_meter":"","win_speed":"<3级"},{"air":"42","air_level":"优","air_tips":"","alarm":{"alarm_content":"","alarm_level":"","alarm_type":""},"date":"2025-06-15","day":"15日（星期日）","hours":[{"hours":"08时","tem":"27","wea":"晴","wea_img":"qing","win":"西北风","win_speed":"<3级"},{"hours":"11时","tem":"30","wea":"多云","wea_img":"yun","win":"西北风","win_speed":"<3级"},{"hours":"14时","tem":"31","wea":"阴","wea_img":"yin","win":"西北风","win_speed":"<3级"},{"hours":"17时","tem":"32","wea":"阴","wea_img":"yin","win":"西北风","win_speed":"<3级"},{"hours":"20时","tem":"25","wea":"阴","wea_img":"yin","win":"西风","win_speed":"<3级"},{"hours":"23时","tem":"23","wea":"阴","wea_img":"yin","win":"南风","win_speed":"<3级"},{"hours":"02时","tem":"21","wea":"阴","wea_img":"yin","win":"西南风","win_speed":"<3级"},{"hours":"05时","tem":"20","wea":"阴","wea_img":"yin","win":"东南风","win_speed":"<3级"}],"humidity":"43%","index":[{"desc":"辐射弱，涂擦SPF8-12防晒护肤品。","level":"最弱","title":"紫外线指数"},{"desc":"请适当减少运动时间，降低运动强度。","level":"较适宜","title":"减肥指数"},{"desc":"除特殊体质，无需担心过敏问题。","level":"不易发","title":"血糖指数"},{"desc":"建议穿短衫、短裤等清凉夏季服装。","level":"炎热","title":"穿衣指数"},{"desc":"无雨且风力较小，易保持清洁度。","level":"较适宜","title":"洗车指数"},{"desc":"气象条件较不利于空气污染物扩散。。","level":"较差","title":"空气污染扩散指数"}],"pressure":"","sunrise":"04:45","sunset":"19:44","tem":"32","tem1":"32","tem2":"20","uvDescription":"很强","uvIndex":"9","visibility":"","wea":"阴","wea_day":"阴","wea_day_img":"yin","wea_img":"yin","wea_night":"阴","wea_night_img":"yin","week":"星期日","win":["西北风","西南风"],"win_meter":"","win_speed":"<3级"},{"air":"42","air_level":"优","air_tips":"","alarm":{"alarm_content":"","alarm_level":"","alarm_type":""},"date":"2025-06-16","day":"16日（星期一）","hours":[{"hours":"08时","tem":"25","wea":"阴","wea_img":"yin","win":"西南风","win_speed":"<3级"},{"hours":"11时","tem":"28","wea":"多云","wea_img":"yun","win":"西南风","win_speed":"<3级"},{"hours":"14时","tem":"30","wea":"小雨","wea_img":"yu","win":"西风","win_speed":"<3级"},{"hours":"17时","tem":"29","wea":"大雨","wea_img":"yu","win":"西风","win_speed":"<3级"},{"hours":"20时","tem":"28","wea":"多云","wea_img":"yun","win":"西北风","win_speed":"<3级"},{"hours":"23时","tem":"25","wea":"多云","wea_img":"yun","win":"西风","win_speed":"<3级"},{"hours":"02时","tem":"22","wea":"晴","wea_img":"qing","win":"西北风","win_speed":"<3级"},{"hours":"05时","tem":"22","wea":"晴","wea_img":"qing","win":"西北风","win_speed":"<3级"}],"humidity":"34%","index":[{"desc":"辐射弱，涂擦SPF8-12防晒护肤品。","level":"最弱","title":"紫外线指数"},{"desc":"有降水，推荐您在室内进行休闲运动。","level":"较不宜","title":"减肥指数"},{"desc":"除特殊体质，无需担心过敏问题。","level":"不易发","title":"血糖指数"},{"desc":"适合穿T恤、短薄外套等夏季服装。","level":"热","title":"穿衣指数"},{"desc":"有雨，雨水和泥水会弄脏爱车。","level":"不宜","title":"洗车指数"},{"desc":"气象条件有利于空气污染物扩散。","level":"良","title":"空气污染扩散指数"}],"pressure":"","sunrise":"04:45","sunset":"19:44","tem":"31","tem1":"31","tem2":"22","uvDescription":"很强","uvIndex":"8","visibility":"","wea":"小雨转晴","wea_day":"小雨","wea_day_img":"yu","wea_img":"yu","wea_night":"晴","wea_night_img":"qing","week":"星期一","win":["西风","西北风"],"win_meter":"","win_speed":"<3级"}],"nums":3,"update_time":"2025-06-10 16:44:00"}